[
  {
    "name": "Amazon Rainforest, Brazil",
    "lat": -3.4653,
    "lng": -62.2159,
    "beforeImage": "images/amazon-rainforest-before.jpg",
    "afterImage": "images/amazon-rainforest-after.jpg",
    "facts": "The Amazon Rainforest is losing thousands of square kilometers each year due to illegal logging, mining, and agriculture, threatening global biodiversity."
  },
  {
    "name": "Lake Chad, Africa",
    "lat": 13.0000,
    "lng": 14.0000,
    "beforeImage": "images/lake-chad-before.jpg",
    "afterImage": "images/lake-chad-after.jpg",
    "facts": "Lake Chad has shrunk by over 90% since the 1960s due to climate change and excessive water usage, impacting millions who depend on it."
  },
  {
    "name": "Aral Sea, Kazakhstan",
    "lat": 45.0000,
    "lng": 60.0000,
    "beforeImage": "images/aral-sea-before.jpg",
    "afterImage": "images/aral-sea-after.jpg",
    "facts": "Once the fourth-largest lake in the world, the Aral Sea has almost completely dried up due to river diversion for agriculture."
  },
  {
    "name": "Great Barrier Reef, Australia",
    "lat": -18.2871,
    "lng": 147.6992,
    "beforeImage": "images/great-barrier-reef-before.jpg",
    "afterImage": "images/great-barrier-reef-after.jpg",
    "facts": "The Great Barrier Reef is experiencing massive coral bleaching due to rising ocean temperatures and acidification."
  },
  {
    "name": "Mt. Kilimanjaro, Tanzania",
    "lat": -3.0674,
    "lng": 37.3556,
    "beforeImage": "images/mt-kilimanjaro-before.jpg",
    "afterImage": "images/mt-kilimanjaro-after.jpg",
    "facts": "Mount Kilimanjaro's glaciers have decreased by over 80% in the last century due to warming temperatures and changing weather patterns."
  },
  {
    "name": "Mekong River Delta, Vietnam",
    "lat": 10.0333,
    "lng": 105.7833,
    "beforeImage": "images/mekong-river-delta-before.jpg",
    "afterImage": "images/mekong-river-delta-after.jpg",
    "facts": "The Mekong River Delta is sinking and shrinking due to upstream damming, sand mining, and sea-level rise, threatening agriculture and livelihoods."
  },
  {
    "name": "Chernobyl, Ukraine",
    "lat": 51.2766,
    "lng": 30.2210,
    "beforeImage": "images/chernobyl-before.jpg",
    "afterImage": "images/chernobyl-after.jpg",
    "facts": "The 1986 Chernobyl disaster released massive amounts of radioactive material, rendering the surrounding area uninhabitable for thousands of years."
  },
  {
    "name": "Yellow River, China",
    "lat": 35.0000,
    "lng": 102.0000,
    "beforeImage": "images/yellow-river-before.jpg",
    "afterImage": "images/yellow-river-after.jpg",
    "facts": "The Yellow River has been heavily polluted and altered by dams and agriculture, affecting water quality and downstream ecosystems."
  },
  {
    "name": "Colorado River, USA",
    "lat": 36.1126,
    "lng": -112.1130,
    "beforeImage": "images/colorado-river-before.jpg",
    "afterImage": "images/colorado-river-after.jpg",
    "facts": "The Colorado River no longer reaches the sea due to extensive damming and water extraction, impacting ecosystems and agriculture."
  },
  {
    "name": "Dead Sea, Jordan",
    "lat": 31.5590,
    "lng": 35.4732,
    "beforeImage": "images/dead-sea-before.jpg",
    "afterImage": "images/dead-sea-after.jpg",
    "facts": "The Dead Sea is rapidly shrinking due to water diversion from the Jordan River and mineral extraction, leading to sinkholes and habitat loss."
  },
  {
    "name": "Lake Urmia, Iran",
    "lat": 37.7000,
    "lng": 45.3333,
    "beforeImage": "images/lake-urmia-before.jpg",
    "afterImage": "images/lake-urmia-after.jpg",
    "facts": "Lake Urmia has shrunk dramatically due to prolonged droughts and excessive irrigation, threatening regional biodiversity."
  },
  {
    "name": "Greenland Ice Sheet, Greenland",
    "lat": 72.0000,
    "lng": -40.0000,
    "beforeImage": "images/greenland-ice-sheet-before.jpg",
    "afterImage": "images/greenland-ice-sheet-after.jpg",
    "facts": "The Greenland Ice Sheet is melting at an accelerating rate due to global warming, contributing significantly to sea-level rise."
  },
  {
    "name": "Okjökull Glacier, Iceland",
    "lat": 64.5783,
    "lng": -20.9731,
    "beforeImage": "images/okjokull-glacier-before.jpg",
    "afterImage": "images/okjokull-glacier-after.jpg",
    "facts": "Okjökull was Iceland’s first glacier lost to climate change, officially declared 'dead' in 2014."
  },
  {
    "name": "Jakarta, Indonesia",
    "lat": -6.2088,
    "lng": 106.8456,
    "beforeImage": "images/jakarta-before.jpg",
    "afterImage": "images/jakarta-after.jpg",
    "facts": "Jakarta is one of the fastest-sinking cities in the world due to groundwater extraction and sea-level rise."
  },
  {
    "name": "Bangladesh Coast",
    "lat": 22.0000,
    "lng": 90.0000,
    "beforeImage": "images/bangladesh-coast-before.jpg",
    "afterImage": "images/bangladesh-coast-after.jpg",
    "facts": "The Bangladesh coast faces severe flooding and displacement due to sea-level rise and intense cyclones linked to climate change."
  },
  {
    "name": "Tuvalu, Pacific Ocean",
    "lat": -7.1095,
    "lng": 177.6493,
    "beforeImage": "images/tuvalu-before.jpg",
    "afterImage": "images/tuvalu-after.jpg",
    "facts": "Tuvalu is at risk of becoming uninhabitable due to rising sea levels, making it a symbol of climate vulnerability."
  },
  {
    "name": "New Orleans, USA",
    "lat": 29.9511,
    "lng": -90.0715,
    "beforeImage": "images/new-orleans-before.jpg",
    "afterImage": "images/new-orleans-after.jpg",
    "facts": "New Orleans has experienced catastrophic flooding, most notably during Hurricane Katrina, worsened by wetland loss and rising seas."
  },
  {
    "name": "Miami, USA",
    "lat": 25.7617,
    "lng": -80.1918,
    "beforeImage": "images/miami-before.jpg",
    "afterImage": "images/miami-after.jpg",
    "facts": "Miami faces regular flooding from sea-level rise, with climate change threatening its long-term habitability and infrastructure."
  },
  {
    "name": "Kiribati",
    "lat": 1.8709,
    "lng": -157.3630,
    "beforeImage": "images/kiribati-before.jpg",
    "afterImage": "images/kiribati-after.jpg",
    "facts": "Kiribati is among the first nations expected to be submerged by rising seas, forcing future climate migration."
  },
  {
    "name": "Maldives",
    "lat": 3.2028,
    "lng": 73.2207,
    "beforeImage": "images/maldives-before.jpg",
    "afterImage": "images/maldives-after.jpg",
    "facts": "The Maldives, composed of low-lying islands, faces existential threats from rising sea levels."
  },
  {
    "name": "Fiji",
    "lat": -17.7134,
    "lng": 178.0650,
    "beforeImage": "images/fiji-before.jpg",
    "afterImage": "images/fiji-after.jpg",
    "facts": "Fiji is experiencing stronger storms and coastal erosion due to climate change, displacing coastal communities."
  },
  {
    "name": "Marshall Islands",
    "lat": 7.1315,
    "lng": 171.1845,
    "beforeImage": "images/marshall-islands-before.jpg",
    "afterImage": "images/marshall-islands-after.jpg",
    "facts": "The Marshall Islands are losing land to the sea, with rising tides flooding homes and contaminating freshwater supplies."
  },
  {
    "name": "Venice, Italy",
    "lat": 45.4408,
    "lng": 12.3155,
    "beforeImage": "images/venice-before.jpg",
    "afterImage": "images/venice-after.jpg",
    "facts": "Venice is sinking and regularly floods due to sea-level rise and subsidence, threatening its historical heritage."
  },
  {
    "name": "Cape Town, South Africa",
    "lat": -33.9249,
    "lng": 18.4241,
    "beforeImage": "images/cape-town-before.jpg",
    "afterImage": "images/cape-town-after.jpg",
    "facts": "Cape Town narrowly avoided running out of water during its 2018 drought, highlighting climate vulnerability in urban areas."
  },
  {
    "name": "Himalayas, Nepal",
    "lat": 28.5983,
    "lng": 83.9311,
    "beforeImage": "images/himalayas-before.jpg",
    "afterImage": "images/himalayas-after.jpg",
    "facts": "Glaciers in the Himalayas are rapidly melting, threatening water supplies for millions in South Asia."
  },
  {
    "name": "Fukushima, Japan",
    "lat": 37.4215,
    "lng": 141.0328,
    "beforeImage": "images/fukushima-before.jpg",
    "afterImage": "images/fukushima-after.jpg",
    "facts": "The 2011 Fukushima nuclear disaster contaminated land and ocean, displacing thousands and raising concerns about nuclear safety."
  },
  {
    "name": "Beijing, China",
    "lat": 39.9042,
    "lng": 116.4074,
    "beforeImage": "images/beijing-before.jpg",
    "afterImage": "images/beijing-after.jpg",
    "facts": "Beijing frequently suffers from severe air pollution due to industrial activity and traffic, affecting public health."
  },
  {
    "name": "Sundarbans, India/Bangladesh",
    "lat": 21.9497,
    "lng": 89.1833,
    "beforeImage": "images/sundarbans-before.jpg",
    "afterImage": "images/sundarbans-after.jpg",
    "facts": "The Sundarbans mangrove forest is threatened by rising sea levels and increased salinity, endangering its unique biodiversity."
  },
  {
    "name": "Sahara Desert, Niger",
    "lat": 18.0000,
    "lng": 10.0000,
    "beforeImage": "images/sahara-desert-before.jpg",
    "afterImage": "images/sahara-desert-after.jpg",
    "facts": "The Sahara Desert is expanding southward, contributing to desertification and displacement in the Sahel region."
  },
  {
    "name": "Gobi Desert, China",
    "lat": 42.5903,
    "lng": 105.0043,
    "beforeImage": "images/gobi-desert-before.jpg",
    "afterImage": "images/gobi-desert-after.jpg",
    "facts": "The Gobi Desert is growing due to overgrazing, deforestation, and climate change, pushing into once-arable land."
  },
  {
    "name": "Siberian Tundra, Russia",
    "lat": 67.0000,
    "lng": 100.0000,
    "beforeImage": "images/siberian-tundra-before.jpg",
    "afterImage": "images/siberian-tundra-after.jpg",
    "facts": "The Siberian tundra is thawing due to rising temperatures, releasing large amounts of methane and destabilizing ecosystems."
  },
  {
    "name": "Lake Poopó, Bolivia",
    "lat": -18.5300,
    "lng": -67.0300,
    "beforeImage": "images/lake-poopo-before.jpg",
    "afterImage": "images/lake-poopo-after.jpg",
    "facts": "Lake Poopó has almost completely dried up due to climate change and water diversion, devastating local livelihoods."
  },
  {
    "name": "Borneo, Indonesia",
    "lat": 0.7893,
    "lng": 113.9213,
    "beforeImage": "images/borneo-before.jpg",
    "afterImage": "images/borneo-after.jpg",
    "facts": "Borneo's rainforests are being cleared rapidly for palm oil plantations, threatening orangutan habitats and biodiversity."
  },
  {
    "name": "Coral Triangle, Philippines",
    "lat": 2.0000,
    "lng": 125.0000,
    "beforeImage": "images/coral-triangle-before.jpg",
    "afterImage": "images/coral-triangle-after.jpg",
    "facts": "The Coral Triangle, a marine biodiversity hotspot, is threatened by overfishing, pollution, and coral bleaching."
  },
  {
    "name": "Antarctic Peninsula, Antarctica",
    "lat": -70.0000,
    "lng": -64.0000,
    "beforeImage": "images/antarctic-peninsula-before.jpg",
    "afterImage": "images/antarctic-peninsula-after.jpg",
    "facts": "The Antarctic Peninsula is one of the fastest-warming places on Earth, leading to ice shelf collapses and rising sea levels."
  },
  {
    "name": "Niger River, Mali",
    "lat": 13.5000,
    "lng": -4.0000,
    "beforeImage": "images/niger-river-before.jpg",
    "afterImage": "images/niger-river-after.jpg",
    "facts": "The Niger River is increasingly threatened by drought, desertification, and upstream dam projects."
  },
  {
    "name": "Oroville Dam, USA",
    "lat": 39.5381,
    "lng": -121.4925,
    "beforeImage": "images/oroville-dam-before.jpg",
    "afterImage": "images/oroville-dam-after.jpg",
    "facts": "The Oroville Dam crisis in 2017 highlighted aging infrastructure and the increasing risk of extreme weather events."
  },
  {
    "name": "Dakar, Senegal",
    "lat": 14.6928,
    "lng": -17.4467,
    "beforeImage": "images/dakar-before.jpg",
    "afterImage": "images/dakar-after.jpg",
    "facts": "Dakar faces severe coastal erosion and flooding driven by rising sea levels and unregulated construction."
  },
  {
    "name": "Sydney, Australia",
    "lat": -33.8688,
    "lng": 151.2093,
    "beforeImage": "images/sydney-before.jpg",
    "afterImage": "images/sydney-after.jpg",
    "facts": "Sydney has endured extreme heatwaves and bushfires, both intensified by climate change."
  },
  {
    "name": "Murray-Darling Basin, Australia",
    "lat": -34.0000,
    "lng": 145.0000,
    "beforeImage": "images/murray-darling-before.jpg",
    "afterImage": "images/murray-darling-after.jpg",
    "facts": "The Murray-Darling Basin is under severe stress from over-extraction of water and prolonged droughts."
  },
  {
    "name": "Athabasca Oil Sands, Canada",
    "lat": 57.0000,
    "lng": -111.0000,
    "beforeImage": "images/athabasca-oil-sands-before.jpg",
    "afterImage": "images/athabasca-oil-sands-after.jpg",
    "facts": "The Athabasca Oil Sands are a major source of carbon emissions and have dramatically altered the surrounding boreal forest."
  },
  {
    "name": "Nile Delta, Egypt",
    "lat": 30.9200,
    "lng": 31.0200,
    "beforeImage": "images/nile-delta-before.jpg",
    "afterImage": "images/nile-delta-after.jpg",
    "facts": "The Nile Delta is shrinking due to sea-level rise and damming upstream, threatening agriculture and settlements."
  },
  {
    "name": "Hoover Dam, USA",
    "lat": 36.0156,
    "lng": -114.7378,
    "beforeImage": "images/hoover-dam-before.jpg",
    "afterImage": "images/hoover-dam-after.jpg",
    "facts": "Water levels at the Hoover Dam have dropped drastically due to prolonged drought and overuse in the Southwest."
  },
  {
    "name": "Yosemite, USA",
    "lat": 37.8651,
    "lng": -119.5383,
    "beforeImage": "images/yosemite-before.jpg",
    "afterImage": "images/yosemite-after.jpg",
    "facts": "Yosemite has faced increased wildfires and tree loss due to warming temperatures and prolonged dry seasons."
  },
  {
    "name": "Rondônia, Brazil",
    "lat": -11.0000,
    "lng": -63.0000,
    "beforeImage": "images/rondonia-before.jpg",
    "afterImage": "images/rondonia-after.jpg",
    "facts": "Rondônia has seen rapid deforestation for cattle grazing, contributing significantly to Amazon rainforest loss."
  },
  {
    "name": "Caribbean Coral Reefs",
    "lat": 17.0000,
    "lng": -75.0000,
    "beforeImage": "images/caribbean-coral-reefs-before.jpg",
    "afterImage": "images/caribbean-coral-reefs-after.jpg",
    "facts": "Caribbean coral reefs have experienced mass bleaching events due to ocean warming and pollution."
  },
  {
    "name": "Hurricane Katrina Flood Zone, USA",
    "lat": 29.9511,
    "lng": -90.0715,
    "beforeImage": "images/katrina-zone-before.jpg",
    "afterImage": "images/katrina-zone-after.jpg",
    "facts": "The Hurricane Katrina flood zone highlights the vulnerabilities of coastal cities to climate-amplified storms."
  },
  {
    "name": "Dubai Coastline, UAE",
    "lat": 25.276987,
    "lng": 55.296249,
    "beforeImage": "images/dubai-coastline-before.jpg",
    "afterImage": "images/dubai-coastline-after.jpg",
    "facts": "Dubai’s massive coastal developments have reshaped marine ecosystems and increased shoreline vulnerability."
  },
  {
    "name": "Mississippi River Delta, USA",
    "lat": 29.0000,
    "lng": -90.0000,
    "beforeImage": "images/mississippi-delta-before.jpg",
    "afterImage": "images/mississippi-delta-after.jpg",
    "facts": "The Mississippi River Delta is rapidly losing land due to erosion, subsidence, and rising sea levels."
  },
  {
    "name": "Mount Everest Base Camp, Nepal",
    "lat": 28.0026,
    "lng": 86.8528,
    "beforeImage": "images/everest-base-camp-before.jpg",
    "afterImage": "images/everest-base-camp-after.jpg",
    "facts": "Glacial retreat near Mount Everest Base Camp is accelerating, exposing rock and altering climbing routes."
  },
  {
    "name": "Timbuktu, Mali",
    "lat": 16.7666,
    "lng": -3.0026,
    "beforeImage": "images/timbuktu-before.jpg",
    "afterImage": "images/timbuktu-after.jpg",
    "facts": "Timbuktu is facing encroaching desertification due to climate change and land degradation in the Sahel region."
  },
  {
    "name": "Glacier National Park, USA",
    "lat": 48.6967,
    "lng": -113.7183,
    "beforeImage": "images/glacier-national-park-before.jpg",
    "afterImage": "images/glacier-national-park-after.jpg",
    "facts": "Glacier National Park has lost the majority of its glaciers over the past century due to warming temperatures."
  },
  {
    "name": "Alps, Europe",
    "lat": 46.8876,
    "lng": 9.6570,
    "beforeImage": "images/alps-before.jpg",
    "afterImage": "images/alps-after.jpg",
    "facts": "The Alps are losing snow cover and glaciers rapidly, threatening water supplies and winter tourism."
  }
]
